city,longitude,latitude
"Menlo Park, CA",-122.1821871,37.4538274
"Mountain View, CA 94043",-122.0757135,37.3943302
"Pittsburgh, PA",-79.9900861,40.4416941
"Santa Clara, CA",-121.9551744,37.3541132
"Weehawken, NJ",-74.0204177,40.7695457
"Mountain View, CA",-122.0832101,37.3893889
"Pittsburgh, PA 15237",-79.9900861,40.4416941
"Dallas, TX 75219",-96.7968559,32.7762719
"Dearborn, MI",-83.1763145,42.3222599
"Houston, TX",-95.3676974,29.7589382
"Austin, TX",-97.7436995,30.2711286
"Chicago, IL",-87.6244212,41.8755546
"San Francisco Bay Area, CA",-122.3558473,37.7884969
"Remote",-123.8925908,43.0059455
"Palo Alto, CA",-122.1634472,37.442156
"Boston, MA 02109",-71.0538433379,42.361952271
"Los Angeles, CA",-118.244476,34.054935
"Milwaukee, WI",-87.922497,43.0349931
"McLean, VA",-77.1776327,38.9342888
"New York, NY",-73.9866136,40.7306458
"San Francisco, CA",-122.4192363,37.7792808
"Denver, CO",-104.9847034,39.7391536
"Columbus, OH",-83.0007065,39.9622601
"New York, NY 10001",-73.9903862044,40.7492123933
"New York, NY 10019",-73.9859297831,40.7657135524
"San Francisco, CA 94103",-122.414883893,37.7779785984
"Aurora, IL 60506",-88.3290789,41.743635
"Edgewater, NJ",-73.975694,40.8270448
"San Mateo, CA",-122.3330573,37.496904
"Bellevue, WA 98004",-122.206243295,47.6269503606
"Vancouver, WA",-122.6744557,45.6306954
"Cleveland, OH 44114",-81.6934446,41.5051613
"Flushing, NY",-73.8174291,40.7654301
"Salt Lake City, UT",-111.8904308,40.7670126
"Chanhassen, MN",-93.5307207,44.8618403
"San Diego, CA",-117.1627714,32.7174209
"Calabasas, CA",-118.6440973,34.1446643
"Orange, CA",-117.8704931,33.7500378
"New York, NY 10010",-73.9873437,40.7432428
"San Jose, CA",-121.8905833,37.3361905
"St. Louis, MO",-90.1978889,38.6272733
"Sacramento, CA",-121.4943996,38.5815719
"Saint Paul, MN 55114",-93.1015026,44.9504037
"Cincinnati, OH",-84.5124602,39.1014537
"Irving, TX 75038",-96.9714585405,32.865027561
"New York, NY 10011",-74.0004531,40.7422667
"Spring House, PA",-75.2279639081,40.1868505
"Greer, SC",-82.2272119,34.9381361
"Atlanta, GA",-84.3901849,33.7490987
"Seattle, WA",-122.3300624,47.6038321
"New York, NY 10022",-73.96783035,40.7581986149
"Clearwater, FL",-82.8001026,27.9658533
"Washington, DC",-77.0366456,38.8949549
"San Diego, CA 92108",-117.133570326,32.7729389527
"Auburn Hills, MI",-83.230937613,42.6647495
"Northbrook, IL",-87.8299476,42.1299234
"Raleigh, NC 27607",-78.6390989,35.7803977
"Park City, UT",-111.4979741,40.6460635
"Minneapolis, MN",-93.2654692,44.9772995
"Little Rock, AR",-92.2895948,34.7464809
"Bentonville, AR 72712",-94.2088172,36.3728538
"Beaverton, OR",-122.8037804,45.4871723
"Gold River, CA",-64.3456887544,44.55961545
"Springfield, VA",-77.1870368,38.7890522
"Schaumburg, IL 60173",-88.0331387,42.027582
"Middletown, CT",-72.6506488,41.5623209
"Boston, MA",-71.0595678,42.3604823
"Redwood City, CA",-122.2325233,37.4863239
"Hartford, CT 06156",-72.6921881671,41.7666805519
"Hershey, PA",-76.6506001,40.2854881
"Corning, NY 14830",-77.0546903,42.1428521
"Plano, TX 75024",-96.7917401235,33.0830795749
"Washington, DC 20535",-77.0366456,38.8949549
"Chicago, IL 60603",-87.628353419,41.881095722
"San Bruno, CA",-122.4110835,37.6304904
"Washington, DC 20037",-77.0366456,38.8949549
"California",-118.7559974,36.7014631
"New York, NY 10282",-74.0150550836,40.7159874115
"Dallas, TX 75251",-96.764582,32.92528
"Philadelphia, PA 19123",-75.1635899,39.9523993
"Carlsbad, CA",-117.3505966,33.1580933
"Dearborn, MI 48121",-83.1763145,42.3222599
"San Ramon, CA 94583",-121.93141731,37.7360507665
"Troy, MI 48083",-83.1167954668,42.5575451005
"Cambridge, MA",-71.1056157,42.3750997
"Raleigh, NC",-78.6390989,35.7803977
"Santa Monica, CA",-118.487549,34.019657
"Reston, VA 20191",-77.3579743,38.9584018
"Hoboken, NJ",-74.0323752,40.7433066
"New York, NY 10018",-73.9833447,40.7537497
"San Francisco, CA 94107",-122.395076764,37.7639502636
"Fairfax, VA",-77.3063733,38.8462236
"Chicago, IL 60647",-87.69932186,41.9173964265
"Topeka, KS",-95.677556,39.049011
"The Woodlands, TX",-95.504686,30.1734194
"San Antonio, TX",-98.4951405,29.4246002
"San Francisco, CA 94111",-122.4035253,37.793845
"Santa Barbara, CA",-119.7026673,34.4221319
"Laurel, MD",-76.8483061,39.0992752
"Pittsburgh, PA 15220",-79.9900861,40.4416941
"Manchester, NH",-71.4547891,42.9956397
"Charlotte, NC 28277",-80.8431268,35.2270869
"New York, NY 10036",-73.9886599,40.76010905
"Tempe, AZ 85282",-111.897607777,33.3971154368
"San Carlos, CA",-122.2618236,37.504936
"Golden, CO",-105.2210997,39.755543
"Bellevue, WA",-122.1923372,47.6144219
"Seattle, WA 98115",-122.299107019,47.6849565773
"Hudson, OH",-81.440667,41.240056
"South San Francisco, CA",-122.4081251,37.6549493
"Louisville, KY",-85.759407,38.2542376
"Santa Clara, CA 95052",-121.9361945,37.3533529
"Washington, DC 20005",-77.0366456,38.8949549
"Kennesaw, GA",-84.6154897,34.0234337
"Alexandria, VA",-77.0470229,38.8051095
"Redmond, WA 98052",-122.114686376,47.6838020197
"Rensselaer, NY",-73.5107732,42.7091389
"Boise, ID 83713",-116.200835,43.61656
"Crystal City, VA",-77.0502898,38.8579043
"New York, NY 10003",-73.9917813,40.7298391
"Boston, MA 02116",-71.0671842382,42.3507766597
"Carlsbad, CA 92009",-117.3274917,33.1227558
"Dearborn, MI 48124",-83.1763145,42.3222599
"Philadelphia, PA",-75.1635899,39.9523993
"Jacksonville, FL 32256",-81.5655576413,30.214830752
"United States",-100.4458825,39.7837304
"Seattle, WA 98121",-122.345890789,47.6150178807
"Lehi, UT",-111.8491619,40.3880902
"Upton, NY 11973",-72.8930535608,40.858050615
"Herndon, VA",-77.3859479,38.9695316
"Alexandria, VA 22304",-77.0470229,38.8051095
"New York, NY 10154",-73.9723107,40.7578656
"Chevy Chase, MD 20815",-77.0783082645,38.9824560047
"Aberdeen, MD",-76.1641197,39.5095556
"Knoxville, TN 37929",-83.9210261,35.9603948
"Piscataway, NJ",-74.4660408,40.5462553
"Atlanta, GA 30308",-84.3901849,33.7490987
"Rochester, NY 14623",-77.615214,43.157285
"Portland, OR 97204",-122.6741949,45.5202471
"Washington, DC 20036",-77.0366456,38.8949549
"Mountlake Terrace, WA",-122.3066395,47.7909667
"Cleveland, OH 44101",-81.6934446,41.5051613
"Dallas, TX",-96.7968559,32.7762719
"Spring, TX",-95.4172549,30.0798826
"Itasca, IL",-88.0067509,41.9751722
"Orlando, FL",-81.3790462,28.5421175
"Omaha, NE",-95.9378732,41.2587317
"Fort Mill, SC",-80.9450759,35.0073697
"Kansas City, MO",-94.5630298,39.0844687
"Germantown, MD 20876",-77.2716502,39.1731621
"Newport Beach, CA",-117.9294401,33.6170092
"Stanford, CA 94305",-122.160692013,37.4232483752
"Reston, VA",-77.3579743,38.9584018
"Norwalk, CT 06854",-73.4296370437,41.0941562472
"Lowell, AR",-94.1307587,36.2553543
"Wilmington, DE",-75.546589,39.7459468
"Seattle, WA 98104",-122.32894979,47.6016203824
"Home Based",27.961989795,-22.1814165
"Charlottesville, VA 22909",-84.8530123,39.5361624
"Boulder, CO 80301",-105.2705456,40.0149856
"Mountain View, CA 94041",-122.078444585,37.3893394442
"Boulder, CO",-105.2705456,40.0149856
"Irvine, CA",-117.8259819,33.6856969
"Alpharetta, GA 30005",-84.2747329,34.0709576
"Princeton, NJ",-74.6592958,40.3492744
"Watertown, MA",-71.1828321,42.3709299
"Los Angeles, CA 90017",-118.264413844,34.0532320402
"Minneapolis, MN 55417",-93.2654692,44.9772995
"Chicago, IL 60604",-87.6277733141,41.8784210025
"Plano, TX",-96.6925096,33.0136764
"Cupertino, CA",-122.0322519,37.3230107
"Campbell, CA",-121.9456328,37.2883259
"Waltham, MA",-71.2358004,42.3756401
"Austin, TX 78701",-97.7426894796,30.2708799606
"San Diego, CA 92129",-117.126651652,32.9616366693
"Portland, OR",-122.6741949,45.5202471
"Richmond, VA",-77.43428,37.5385087
"Washington, DC 20024",-77.0366456,38.8949549
"Nashville, TN 37214",-86.7743531,36.1622296
"Lake Forest, CA 92630",-117.689471671,33.6220212753
"Clinton, NJ",-74.90989,40.6367682
"Durham, NC 27709",-78.898619,35.9940329
"Tempe, AZ 85281",-111.916922298,33.428568975
"Herndon, VA 20171",-77.3859479,38.9695316
"Phoenix, AZ 85016",-112.028915858,33.5076678459
"Vienna, VA 22182",-77.2651585,38.9013013
"Cambridge, MA 02139",-71.103742308,42.3639293324
"Pittsburgh, PA 15219",-79.9900861,40.4416941
"Pennsville, NJ",-75.5165881,39.6534464
"Atlanta, GA 30324",-84.3621253,33.8312303
"Durham, NC 27713",-78.898619,35.9940329
"New York, NY 10012",-73.9998816,40.7284254
"Pennington, NJ",-74.790718,40.3284403
"New Jersey",-74.4041622,40.0757384
"Milwaukee, WI 53202",-87.922497,43.0349931
"Oak Ridge, TN 37830",-84.2696449,36.0103562
"Suitland, MD",-76.9238625,38.848724
"Chicago, IL 60605",-87.6275705108,41.8705875441
"Estero, FL 33928",-81.8067524,26.438136
"Winston-Salem, NC",-80.2440518,36.0998131
"Highlands Ranch, CO",-104.9694264,39.5538771
"Bradenton, FL",-82.5748194,27.4989278
"Lexington Park, MD",-76.453107,38.2641725
"Hartford, CT",-72.6908673,41.7645491
"Thousand Oaks, CA",-118.91058773,34.17142715
"Princeton, NJ 08540",-74.6484069,40.3453066
"Mahwah, NJ",-74.1437552,41.0887072
"Oakland, CA",-122.2713563,37.8044557
"Sausalito, CA",-122.4854694,37.8590272
"Pekin, IL 61554",-89.625060105,40.5534060913
"Bethesda, MD 20814",-77.0946459,38.9848265
"Tampa, FL",-82.458444,27.9477595
"Jersey City, NJ",-74.0776417,40.7281575
"Saint Petersburg, FL",-82.6695085,27.7703796
"Rockville, MD 20850",-77.1527573,39.0840054
"Sunnyvale, CA",-122.0363496,37.3688301
"Champaign, IL",-88.2433829,40.1164205
"Malvern, PA",-75.5138959,40.036202
"San Francisco, CA 94110",-122.416504387,37.7550358258
"Baltimore, MD 21231",-76.610759,39.2908816
"Holmdel, NJ",-74.1840322,40.3451095
"Conshohocken, PA",-75.3015714,40.0792766
"Cleveland, OH",-81.6934446,41.5051613
"Charlotte, NC",-80.8431268,35.2270869
"Westbrook, ME 04092",-70.3530999276,43.6816730597
"Pennington, NJ 08534",-74.7976905524,40.32594205
"Brentwood, TN 37027",-86.7825235,36.0325687
"Peoria, IL 61615",-89.6317622,40.7450674
"Burlingame, CA",-122.3660825,37.5841026
"Oakland, CA 94612",-122.269622132,37.80879658
"San Francisco, CA 94105",-122.394947891,37.7889757774
"Centennial, CO",-104.8769227,39.579155
"Dulles, VA 20166",-77.4534242938,38.9522097
"Baltimore, MD",-76.610759,39.2908816
"Groton, CT 06340",-72.0724027,41.347515
"Livonia, MI",-83.3527097,42.36837
"Costa Mesa, CA",-117.903317,33.6633386
"Las Vegas, NV",-115.149225,36.1662859
"Houston, TX 77046",-95.4361017541,29.73152552
"San Diego, CA 92131",-117.085188361,32.9176599862
"Broken Bow, NE",-99.6396721,41.4015879
"Pasadena, CA 91105",-118.1444779,34.1476452
"New York, NY 10017",-73.9646461,40.7524472
"Memphis, TN",-90.0516285,35.1490215
"Costa Mesa, CA 92626",-117.8885474,33.6769678
"Coppell, TX 75019",-96.982757372,32.9669116197
"Austin, TX 78759",-97.7510101,30.4097654
"Tampa Bay, FL",-82.5723193,27.6886419
"Columbia, MD 21046",-76.8747722901,39.19391955
"Phoenix, AZ",-112.0773456,33.4485866
"Boca Raton, FL",-80.0830984,26.3586885
"Pasadena, CA",-118.1444779,34.1476452
"Denver, CO 80202",-104.9847034,39.7391536
"Lancaster, PA",-76.3056686,40.03813
"Hillsboro, OR 97124",-122.95777481,45.5360247035
"Aurora, CO",-104.8319196,39.729432
"Chicago, IL 60602",-87.6299910591,41.8831203068
"Atlanta, GA 30303",-84.3901849,33.7490987
"Philadelphia, PA 19110",-75.1635899,39.9523993
"Basking Ridge, NJ",-74.5492725,40.7064088
"Broomfield, CO 80020",-105.0691464,39.9203827
"Newark, DE",-75.7508289,39.6852191
"Lackland AFB, TX",-98.5984181338,29.3827609
"Acton, MA 01720",-71.43284,42.4850931
"Syracuse, NY",-76.1474244,43.0481221
"Salt Lake City, UT 84116",-111.935742844,40.7980881584
"Berkeley, CA",-122.2728639,37.8708393
"New York, NY 10020",-73.9796155661,40.7590043139
"Norwalk, CT",-73.4078968,41.1175966
"San Francisco, CA 94104",-122.405497935,37.7839403015
"Nashville, TN",-86.7743531,36.1622296
"Wilton, CT",-73.4378988,41.1953739
"Springfield, VA 22152",-77.1870368,38.7890522
"Detroit, MI",-83.0567375,42.3486635
"Los Altos, CA",-122.116578,37.3790629
"Washington, DC 20032",-77.0366456,38.8949549
"Arlington, VA",-77.0841585,38.8903961
"Lehi, UT 84043",-111.855415379,40.4044872372
"Pittsburgh, PA 15289",-79.9900861,40.4416941
"Bloomington, IL 61701",-86.5342881,39.1670396
"Arlington, VA 22203",-77.0841585,38.8903961
"Chesterfield, MO",-90.5742029,38.6560565
"Knoxville, TN 37922",-83.9210261,35.9603948
"Cary, NC",-78.7811925,35.7882973
"Stamford, CT 06902",-73.5350434,41.0340978
"Seattle, WA 98134",-122.332981698,47.5787089666
"Lake County, IL",-87.9939847,42.332599
"Orlando, FL 32817",-81.3790462,28.5421175
"Parktown, NC",-78.1416584,36.313204
"Dayton, OH",-84.1916069,39.7589478
"West Valley City, UT",-111.9867271,40.696629
"Olympia, WA",-122.8948725,47.0450197
"Madison, WI 53703",-89.3937123,43.0744648
"Dearborn, MI 48120",-83.1763145,42.3222599
"Grand Rapids, MI",-85.6678639,42.9632405
"Denver, CO 80237",-104.89076537,39.6319239937
"South Portland, ME",-70.2408811,43.6414716
"Indianapolis, IN 46240",-86.1583502,39.7683331
"New York, NY 10016",-73.9813279494,40.7492901623
"Eden Prairie, MN 55347",-93.4563542096,44.8365108893
"Germantown, MD",-77.2716502,39.1731621
"Costa Mesa, CA 92627",-117.8987559,33.657649
"South San Francisco, CA 94080",-122.391032,37.6583129
"Aliso Viejo, CA",-117.7258122,33.5761376
"Raleigh, NC 27617",-78.6390989,35.7803977
"Murray Hill, NJ",-74.4009849,40.6953793
"McLean, VA 22107",-77.1776327,38.9342888
"Fort Worth, TX",-97.3327459,32.753177
"Manhattan, NY",-73.9597222,40.7902778
"Saint Louis, OR",-122.942319,45.1226192
"Waltham, MA 02451",-71.2497705859,42.3965089287
"Fayetteville, AR",-94.1574328,36.0625843
"Durham, NC",-78.898619,35.9940329
"O'Fallon, MO",-90.6998477,38.8106075
"Irving, TX",-96.9442177,32.8295183
"Smithfield, RI",-71.549507,41.9220433
"Southfield, MI",-83.2218731,42.4733689
"Crane, IN",-86.9038938,38.8911588
"Brewer, ME",-68.760681,44.796942
"Oaks, PA",-75.4596319,40.1317722
"Charlottesville, VA",-78.4766781,38.029306
"Linthicum Heights, MD",-76.6597094,39.2039094
"Virginia",-78.4927721,37.1232245
"American Fork, UT 84003",-111.786616714,40.4034817652
"Norcross, GA",-84.2135309,33.9412127
"Maplewood, MN",-92.9952153,44.9530215
"Brooklyn, NY",-73.9495823,40.6501038
"Bethesda, MD",-77.0946459,38.9848265
"Ipswich, MA",-70.8411583,42.679273
"Neenah, WI",-88.462609,44.1858193
"Andover, MA 01810",-71.1931452,42.692969
"Irving, TX 75063",-96.9638235909,32.924291665
"Louisville, CO 80027",-105.143637,39.9909735
"Oklahoma",-97.2684063,34.9550817
"Scottsdale, AZ 85262",-111.856857137,33.7996214164
"McLean, VA 22108",-77.1776327,38.9342888
"McLean, VA 22102",-77.1776327,38.9342888
"San Antonio, TX 78251",-98.6717573836,29.4609222347
"West Point, PA",-75.2993434,40.2067735
"Ames, IA 50014",-93.6170554,42.0267703
"Tysons Corner, VA",-77.2314723,38.918592
"Chicago, IL 60601",-87.6242854328,41.8859660997
"Palo Alto, CA 94301",-122.1650444,37.4436157
"Elmsford, NY",-73.8201338,41.0550969
"Ann Arbor, MI",-83.7312291,42.2681569
"Rockville, MD",-77.1527573,39.0840054
"Somerville, MA",-71.0994968,42.3875968
"Birmingham, MI",-86.8024326,33.5206824
"Burbank, CA",-118.3258554,34.1816482
"Springfield, VA 22150",-77.1870368,38.7890522
"Ashburn, VA 20147",-77.4874899,39.0437192
"El Segundo, CA",-118.383179,33.912594
"El Segundo, CA 90245",-118.396649989,33.92391575
"Culver City, CA 90232",-118.4087402,34.0137805
"Atlanta, GA 30329",-84.3901849,33.7490987
"Research Triangle Park, NC",-78.860285,35.8970917
"Redwood City, CA 94065",-122.247153451,37.5352336456
"Maryville, MO",-94.8724707,40.3461017
"Canonsburg, PA 15317",-80.1872797,40.2625702
"San Jose, CA 95134",-121.939122074,37.4062904241
"Irvine, CA 92614",-117.8552421,33.6849329
"Manchester, CT",-72.5231973,41.7834017
"Minnetonka, MN",-93.499059,44.9127229
"Arlington, VA 22201",-77.0841585,38.8903961
"Scottsdale, AZ",-111.8992365,33.5091215
"Natick, MA",-71.346996,42.2836393
"New Orleans, LA",-90.0701156,29.9499323
"Foster City, CA",-122.2688522,37.5600336
"Rowayton, CT",-73.4365082,41.0639858
"Socorro, NM",-106.8930518,34.0572791
"Englewood Cliffs, NJ",-73.9523597,40.8853773
"Emeryville, CA",-122.2865266,37.8314089
"Campbell, CA 95008",-121.951159128,37.283558056
"Woonsocket, RI",-71.5147839,42.0028761
"Cincinnati, OH 45249",-84.5124602,39.1014537
"New Britain, CT 06051",-72.7701542477,41.665744778
"University Park, PA",-77.8624447,40.8005307
"Plainsboro, NJ",-74.6004341,40.3334409
"Lexington, KY",-84.4970393,38.0464066
"Pleasanton, CA 94566",-121.87104994,37.6608270389
"Indianapolis, IN",-86.1583502,39.7683331
"Madison, WI",-89.3837613,43.074761
"Sutton, MA 01590",-71.7622123229,42.1400164
"Greensboro, NC",-79.7919754,36.0726355
"Pawtucket, RI 02861",-71.3556339842,41.8806570196
"Duluth, GA 30096",-84.1441046,34.0028569
"Schaumburg, IL",-88.083406,42.0333608
"New York, NY 10005",-74.0147853317,40.7060749193
"Hawthorne, CA",-118.34816,33.911454
"Buckley AFB, CO",-104.758286,39.7078055
"Loveland, CO",-105.0749801,40.3977612
"Tampa, FL 33619",-82.458444,27.9477595
"Wilmington, DE 19801",-75.546589,39.7459468
"Dayton, OH 45431",-84.1916069,39.7589478
"Redmond, WA",-122.1238767,47.6694141
"Eden Prairie, MN 55344",-93.4169162,44.8675809
"Columbia, MD",-76.8582049,39.2156213
"Colorado Springs, CO",-104.8253485,38.8339578
"Tarrytown, NY",-73.8587461,41.0762077
"Greensboro, NC 27410",-79.7919754,36.0726355
"Guaynabo, PR",-66.1010033,18.4168524
"Glendale, CA",-118.248596,34.142498
"Lexington, MA",-71.2245003,42.4473175
"Plantation, FL",-80.2578612377,26.1265258
"Menlo Park, CA 94025",-122.1821871,37.4538274
"Providence, RI",-71.4128343,41.8239891
"Radnor, PA",-75.3595487,40.0463001
"Raleigh, NC 27615",-78.6390989,35.7803977
"Westford, MA 01886",-71.4391229093,42.5888388535
"Overland Park, KS",-94.6707917,38.9822282
"New Haven, CT",-72.9250518,41.3082138
"Santa Clara, CA 95054",-121.9662771,37.3867782
"Greenwich, CT",-73.6284598,41.0264862
"Lake Buena Vista, FL",-81.5297578369,28.38034955
"Redlands, CA",-117.248983997,34.069909
"Oakland, NJ",-74.2430988,41.0220483
"Patrick Afb, FL",-80.609560465,28.24214475
"San Jose, CA 95124",-121.922821563,37.2599615884
"Butler, PA",-79.9248433,40.8913626
"Palo Alto, CA 94306",-122.133287258,37.4183603542
"Millbrook, NY",-73.6921867,41.7865038
"Chicago, IL 60654",-87.6322764149,41.8906004138
"Livermore, CA 94550",-121.7680531,37.6820583
"Torrance, CA",-118.3406288,33.8358492
"Chicago, IL 60606",-87.6355888418,41.8807481912
"Reston, VA 20190",-77.3579743,38.9584018
"Dulles, VA",-77.3904023,38.9538385
"San Mateo, CA 94402",-122.326222098,37.5517429908
"Novato, CA 94949",-122.5681191,38.1061979
"Mountain View, CA 94040",-122.089730543,37.3858294518
"Pittsburgh, PA 15206",-79.9900861,40.4416941
"Newark, DE 19713",-75.7508289,39.6852191
"Redondo Beach, CA",-118.3886766,33.8455911
"Beaufort, SC",-80.6698286,32.4315813
"Maryland",-76.9382069,39.5162234
"Tucson, AZ",-110.9262353,32.2218917
"Aurora, CO 80011",-104.823003631,39.731490305
"New York State",-75.8449946,43.1561681
"Hollywood, CA 90068",-118.331941246,34.1179750489
"Santa Clara, CA 95051",-121.979789549,37.3487849355
"Richardson, TX",-96.7297206,32.9481789
"Silicon Valley, CA",-122.059654866,37.4102193
"Aberdeen, MD 21001",-76.1641197,39.5095556
"Anaheim, CA 92805",-117.906915724,33.8322177809
"Kearny, NJ",-74.1454214,40.7684342
"Vicksburg, MS 39180",-90.8777342,32.3528418
"Emeryville, CA 94608",-122.282933325,37.8346256031
"Patuxent River, MD",-76.6969878,38.8464867
"Columbia, SC",-81.0343313,34.0007493
"Seattle, WA 98101",-122.32966498,47.602126396
"Minneapolis-Saint Paul, MN",-93.1027671269,44.94758455
"Draper, UT",-111.8638226,40.5246711
"Alpharetta, GA",-84.2747329,34.0709576
"Sunnyvale, CA 94085",-122.041905814,37.3986369222
"Foxborough, MA 02035",-71.2502527767,42.0681173712
"High Point, NC 27265",-80.0053176,35.9556924
"San Mateo, CA 94401",-122.321029587,37.5659159003
"Seattle, WA 98103",-122.343938758,47.6737866552
"Sunnyvale, CA 94089",-122.007100393,37.4027502836
"Fort Meade, MD",-76.7476152975,39.10517
"Maple Grove, MN 55311",-93.4561052,45.0759797
"Charlottesville, VA 22901",-78.487434,38.062398
"Boston, MA 02210",-71.0423886037,42.3476360747
"Orlando, FL 32819",-81.3790462,28.5421175
"New York, NY 10006",-74.0137316,40.7068216
"Newark, CA",-122.0402399,37.5296593
"Baltimore, MD 21202",-76.610759,39.2908816
"San Diego, CA 92101",-117.1627714,32.7174209
"Boise, ID",-116.200835,43.61656
"Mill Valley, CA 94941",-122.537483233,37.8991367444
"Los Altos, CA 94022",-122.12606859,37.3829952401
"Boston, MA 02110",-71.0533044292,42.3565471491
"Quincy, MA",-71.0022705,42.2528772
"Chicago, IL 60607",-87.6506519372,41.875738016
"Port Washington, NY 11050",-73.6981858,40.8256561
"Washington, DC 20375",-77.0366456,38.8949549
"Farmington Hills, MI 48335",-83.3771553,42.4853125
"Plymouth Meeting, PA",-75.2844870122,40.1105915
"National Harbor, MD",-77.0141419981,38.78343595
"Tualatin, OR 97062",-122.763869452,45.3700830271
"Venice, CA",-118.466674895,33.9859381
"Los Angeles, CA 90025",-118.45419801,34.0446011029
"Huntsville, AL",-86.5859011,34.729847
"Columbus, IN",-85.9213796,39.2014405
"West Hollywood, CA",-118.3617443,34.0900091
"Beachwood, OH",-81.508732,41.464498
"Harrisburg, PA",-76.8861122,40.2663107
"Broomfield, CO",-105.0587294,39.9379892
"San Antonio, TX 78238",-98.6158520066,29.4797209592
"Palo Alto, CA 94303",-122.127891569,37.449658711
"Venice, CA 90291",-118.461259321,34.0060573054
"Washington, DC 20006",-77.0366456,38.8949549
"Seattle, WA 98102",-122.322123151,47.6339292859
"Santa Monica, CA 90401",-118.493147817,34.0090736644
"Philadelphia, PA 19104",-75.1635899,39.9523993
"Santa Monica, CA 90405",-118.474911567,34.0095810667
"Gwynedd, PA",-75.2551759,40.2017745
"San Jose, CA 95110",-121.9194136,37.369972
"Detroit, MI 48226",-83.051941,42.3259712
"Bothell, WA",-122.2068217,47.759853
"Raleigh, NC 27616",-78.5838077,35.8496128
"Redford, MI",-83.2965971,42.3833698
"Jersey City, NJ 07310",-74.0407169519,40.7313348983
"Wauwatosa, WI",-88.0079271,43.0494122
"Atlanta, GA 30305",-84.3901849,33.7490987
"Canton, CT",-72.8937122,41.8245424
"Arlington, VA 22209",-77.0841585,38.8903961
"Milpitas, CA 95035",-121.8909009,37.4098157
"Chandler, AZ",-111.8408489,33.3067132
"Mount Laurel, NJ 08054",-74.864859,39.95705
"Troy, MI 48084",-83.1796077746,42.5614824817
"New York, NY 10032",-73.9413458329,40.8384696503
"Palo Alto, CA 94304",-122.140817848,37.40555365
"Farmington, MI",-108.2089191,36.7304288
"Kirkland, WA",-122.1920249,47.6859573
"Marshfield, WI",-90.1717987,44.6688524
"Richardson, TX 75080",-96.7297206,32.9481789
"Chandler, AZ 85225",-111.84541301,33.302938094
"Baltimore, MD 21240",-76.610759,39.2908816
"Columbus, OH 43215",-83.0007065,39.9622601
"Franklin, TN 37067",-86.8689365,35.925193
"Overland Park, KS 66210",-94.6865272,38.9241106
"Florham Park, NJ 07932",-74.3898127924,40.7770432476
"Leawood, KS",-94.6169012,38.966673
"Jupiter, FL 33478",-80.1220891181,26.9266939
"Hoffman Estates, IL",-88.079871,42.0426639
"Philadelphia, PA 19103",-75.1635899,39.9523993
"Marina del Rey, CA",-121.8517849,36.9225615
"United States",-100.4458825,39.7837304
"Raleigh, NC 27616",-78.5838077,35.8496128
"Austin, TX",-97.7436995,30.2711286
"Mountain View, CA",-122.0832101,37.3893889
"Los Altos, CA",-122.116578,37.3790629
"New York, NY",-73.9866136,40.7306458
"Seattle, WA",-122.3300624,47.6038321
"Tuscaloosa, AL",-87.4862182,33.2668398
"Chicago, IL 60607",-87.6506519372,41.875738016
"The Woodlands, TX",-95.504686,30.1734194
"McLean, VA",-77.1776327,38.9342888
"San Diego, CA 92129",-117.126651652,32.9616366693
"Redmond, WA 98052",-122.114686376,47.6838020197
"Dearborn, MI",-83.1763145,42.3222599
"Raleigh, NC",-78.6390989,35.7803977
"Palo Alto, CA",-122.1634472,37.442156
"Austin, TX 78701",-97.7426894796,30.2708799606
"Seattle, WA 98101",-122.32966498,47.602126396
"Pittsburgh, PA 15237",-79.9900861,40.4416941
"San Jose, CA 95124",-121.922821563,37.2599615884
"San Francisco, CA",-122.4192363,37.7792808
"Los Angeles, CA",-118.244476,34.054935
"Troy, MI 48084",-83.1796077746,42.5614824817
"Pittsburgh, PA",-79.9900861,40.4416941
"Santa Clara, CA",-121.9551744,37.3541132
"Marina del Rey, CA",-121.8517849,36.9225615
"United States",-100.4458825,39.7837304
"Raleigh, NC 27616",-78.5838077,35.8496128
"Marina del Rey, CA",-121.8517849,36.9225615
"United States",-100.4458825,39.7837304
"Raleigh, NC 27616",-78.5838077,35.8496128
"Austin, TX",-97.7436995,30.2711286
"Mountain View, CA",-122.0832101,37.3893889
"Los Altos, CA",-122.116578,37.3790629
"New York, NY",-73.9866136,40.7306458
"Seattle, WA",-122.3300624,47.6038321
"Tuscaloosa, AL",-87.4862182,33.2668398
"Chicago, IL 60607",-87.6506519372,41.875738016
"The Woodlands, TX",-95.504686,30.1734194
"McLean, VA",-77.1776327,38.9342888
"San Diego, CA 92129",-117.126651652,32.9616366693
"Redmond, WA 98052",-122.114686376,47.6838020197
"Dearborn, MI",-83.1763145,42.3222599
"Raleigh, NC",-78.6390989,35.7803977
"Palo Alto, CA",-122.1634472,37.442156
"Austin, TX 78701",-97.7426894796,30.2708799606
"Seattle, WA 98101",-122.32966498,47.602126396
"Pittsburgh, PA 15237",-79.9900861,40.4416941
"San Jose, CA 95124",-121.922821563,37.2599615884
"San Francisco, CA",-122.4192363,37.7792808
"Los Angeles, CA",-118.244476,34.054935
"Troy, MI 48084",-83.1796077746,42.5614824817
"Austin, TX 78746",-97.7836423,30.2659268
"New York, NY 10011",-74.0004531,40.7422667
"Pittsburgh, PA",-79.9900861,40.4416941
"Santa Clara, CA",-121.9551744,37.3541132
"Township of Warren, NJ",-74.5226690782,40.6306575
"Arlington, VA 22202",-77.0841585,38.8903961
"Carmel, IN",-86.118731,39.9788383
"Englewood, CO",-104.9879641,39.6482059
"Detroit, MI 48202",-83.0567375,42.3486635
"Tampa, FL 33609",-82.458444,27.9477595
"Seattle, WA 98188",-122.255821805,47.44076315
"Littleton, CO 80127",-105.104893907,39.595989
"Union, NJ 07083",-74.2702608554,40.6960728657
"Valencia, CA 91355",-118.554596894,34.4063623581
"New York, NY 10002",-73.9801825,40.7141409
"Pittsburgh, PA 15212",-79.9900861,40.4416941
"Yorktown Heights, NY",-73.7776336,41.2709274
"Secaucus, NJ 07094",-74.060406418,40.7866126067
"Bridgewater, NJ",-74.5516573,40.5599163
"North Charleston, SC",-79.9748103,32.8546197
"Chelmsford, MA 01824",-71.3564397449,42.6050314544
"Santa Clara, CA 95050",-121.952893701,37.3501609901
"Greensboro, NC 27409",-79.7919754,36.0726355
"Miramar, FL",-80.3347212812,25.97591145
"San Jose, CA 95131",-121.88997604,37.3835198662
"Burlington, MA",-71.1956111,42.5048167
"Pensacola, FL",-87.2169149,30.421309
"Bozeman, MT 59715",-111.052305883,45.6903738228
"Rowland Heights, CA 91748",-117.894972308,33.9808217837
"New York, NY 10013",-74.00542,40.715236
"San Jose, CA 95112",-121.882845362,37.3424595479
"Nashville, TN 37217",-86.7743531,36.1622296
"Orlando, FL 32826",-81.3790462,28.5421175
"Bedford, MA",-71.2817947,42.4917301
"Lake Geneva, WI",-88.4334301,42.5916836
"Wayne, PA",-75.3878616,40.0440149
"Vienna, VA",-77.2651585,38.9013013
"San Jose, CA 95125",-121.897410159,37.2976391744
"Tampa, FL 33602",-82.449638,27.9516574
"Des Plaines, IL 60016",-87.8873916,42.0415823
"New Mexico",-105.993007,34.5708167
"Wright-Patterson AFB, OH",-84.0697,39.8071
"Los Angeles, CA 90045",-118.3797562,33.9576546
"Massachusetts",-72.032366,42.3788774
"Blacksburg, VA",-80.4136767,37.2296566
"Annapolis Junction, MD",-76.7963417456,39.11899645
"Woodland Hills, CA 91367",-118.617899837,34.1764926195
"Escondido, CA 92025",-117.063660659,33.1014160148
"Framingham, MA 01702",-71.425352331,42.2824195844
"Orlando, FL 32809",-81.3790462,28.5421175
"Portland, OR 97209",-122.684630463,45.5286792383
"Cherry Hill, NJ",-75.0307264,39.9348351
"Kansas City, OR",-123.147054,45.5959464
"Palmdale, CA 93599",-117.664635721,34.5187208772
"Westminster, CO",-105.0372046,39.8366528
"New Kensington, PA",-79.7647705,40.5697893
"Bellingham, WA 98225",-122.4790484,48.7468783
"Cambridge, MA 02142",-71.083997309,42.3637757447
"Milpitas, CA",-121.9066238,37.4282724
"Des Moines, IA",-93.6037149,41.5910641
"Falls Church, VA",-77.1710914,38.882334
"Carlsbad, CA 92008",-117.330545326,33.156224749
"Fort Walton Beach, FL",-86.618842,30.4057552
"Secaucus, NJ",-74.0566735,40.7899291
"North Charleston, SC 29418",-79.9748103,32.8546197
"Dublin, OH 43017",-83.1140771,40.0992294
"Orlando, FL 32825",-81.3790462,28.5421175
"Westlake, TX",-97.1950138,32.991235
"Waukesha, WI 53188",-88.271718138,43.0192532885
"Irvine, CA 92618",-117.771510666,33.6802521412
"San Francisco, CA 94114",-122.437245334,37.7576313679
"Oldsmar, FL",-82.6501914928,28.06906015
"Basking Ridge, NJ 07920",-74.548569,40.706794
"Lexington, SC 29072",-81.2362107,33.9815369
"Manhattan, NY 10018",-73.9833447,40.7537497
"Los Angeles, CA 90034",-118.38935,34.0290898
"Minnetonka, MN 55345",-93.499059,44.9127229
"Orlando, FL 32801",-81.3790462,28.5421175
"Monument, CO",-104.872758,39.0916586
"Media, PA",-75.387693,39.9167783
"Tampa, FL 33634",-82.458444,27.9477595
"Hicksville, NY",-73.5251253,40.7684331
"Bar Harbor, ME 04609",-68.228125614,44.3871796696
"New York, NY 10029",-73.9430407,40.7836223
"Ann Arbor, MI 48103",-83.7312291,42.2681569
"Princeton, NJ 08544",-74.6521294623,40.3452871889
"Wesley Chapel, FL 33544",-82.3572468252,28.2552996248
"Concord, MA 01742",-71.3111002312,42.4687634236
"Sherman Oaks, CA",-118.4489865,34.1508718
"Redwood City, CA 94063",-122.218470447,37.4831787227
"Pleasanton, CA",-121.8746789,37.6624312
"Lombard, IL 60148",-88.0122779229,41.8626841749
"Miami, FL 33130",-80.1936589,25.7742658
"Lancaster, PA 17603",-76.3056686,40.03813
"Birmingham, AL",-86.8024326,33.5206824
"Atlanta, GA 30320",-84.3901849,33.7490987
"New York, NY 10004",-74.0135004445,40.7004500205
"Oshkosh, WI 54902",-88.5511196549,43.9876992122
"California, MD",-76.5074542,38.3004029
"Playa Vista, CA",-118.4275776,33.9727898
"Fort Wayne, IN 46803",-85.0971337,41.0765448
"Atlanta, GA 30339",-84.3901849,33.7490987
"Burlington, MA 01803",-71.1956111,42.5048167
"Niskayuna, NY",-73.8456775,42.7797995
"Omaha, NE 68102",-95.927181,41.256791
"Seattle, WA 98164",-122.332224238,47.6058469776
"Oklahoma City, OK 73105",-97.5170536,35.4729886
"Texas",-99.5120986,31.8160381
"Hudson, MA 01749",-71.5722510856,42.3883387025
"Windsor, CT 06095",-72.6668056493,41.8650360036
"Binghamton, NY",-75.914341,42.096968
"South Jordan, UT",-111.929658,40.5621704
"Hartford, CT 06120",-72.6726576509,41.7849987815
"Chicago, IL 60611",-87.6226428572,41.8954273844
"Edina, MN",-93.3501222,44.8897027
"Boulder, CO 80302",-105.2705456,40.0149856
"New Hope, PA",-74.9512785,40.3642728
"Farmington Hills, MI",-83.3771553,42.4853125
"Iowa City, IA 52242",-91.5299106,41.6612561
"Huntsville, AL 35824",-86.5859011,34.729847
"Saline, MI",-93.2300648,39.1256186
"Mountain View, CA 94035",-122.040658316,37.4235591885
"Kalispell, MT",-114.3167117,48.2022563
"Washington, DC 20009",-77.0366456,38.8949549
"Andover, MA",-71.1408776,42.65717
"Hollywood, CA",-118.3299899,34.1028268
"Phoenix, AZ 85018",-111.985488061,33.499315622
"Norfolk, VA 23502",-76.2929252,36.8462923
"Fort Belvoir, VA",-77.1436762766,38.7107385
"Renton, WA",-122.2034496,47.4799078
"Long Beach, CA",-118.158049315,33.78538945
"Tacoma, WA 98431",-122.547456,47.118629
"Baltimore, MD 21230",-76.610759,39.2908816
"Kent, WA 98032",-122.2615934,47.4134419723
"St Petersburg Beach, FL",-82.6850134,27.7343743
"Jericho, NY",-73.5398476,40.7920441
"Fremont, CA",-121.9885719,37.5482697
"Sparks, NV",-119.7527683,39.5348431
"Baton Rouge, LA 70816",-91.0355414439,30.4273485713
"East Hanover, NJ",-74.3648731,40.8200998
"Charlotte, NC 28255",-80.8431268,35.2270869
"Job, WV",-79.5569984,38.8642774
"Huntington Beach, CA 92647",-118.009235352,33.7198894322
"Austin, TX 78735",-97.8393064,30.2394202
"Chapel Hill, NC",-79.0558445,35.9131996
"Hopewell, NJ",-74.7618285,40.3892726
"San Diego, CA 92102",-117.121061347,32.7149601832
"White Marsh, MD",-76.457304,39.3819338
"King of Prussia, PA",-75.3851599334,40.095044
"Rancho Santa Margarita, CA",-117.6029341,33.6408845
"San Carlos, CA 94070",-122.2599714,37.5075671
"Moline, IL 61265",-90.5180124,41.492247
"Johnston, IA",-93.6973395,41.6731523
"Chesterfield, MO 63017",-90.5377081783,38.6426665332
"San Bruno, CA 94066",-122.419204518,37.6296839119
"High Point, NC",-80.0053176,35.9556924
"Englewood, CO 80111",-104.840261,39.6048928
"Atlanta, GA 30309",-84.393808,33.812907
"Eagan, MN",-93.1659179,44.818173
"Duluth, GA",-84.1441046,34.0028569
"Boston, MA 02298",-71.0595678,42.3604823
"Riverwoods, IL",-87.8970986,42.1676068
"Township of Warren, NJ 07059",-74.508097,40.616396
"Orlando, FL 32837",-81.3790462,28.5421175
"Norwell, MA",-70.7939307,42.1617681
"Chesterbrook, PA",-75.4562463411,40.0726519
"Manhattan Beach, CA",-118.400345,33.895497
"Greenwood Village, CO",-104.9508141,39.6172101
"Springfield, MO",-93.2920373,37.2166779
"San Antonio, TX 78259",-98.4951405,29.4246002
"Englewood, CO 80112",-104.879495011,39.58848385
"Woodland Hills, CA",-118.6059197,34.1683386
"Cleveland, OH 44195",-81.6934446,41.5051613
"Houston, TX 77002",-95.3746868,29.7600914
"Louisville, KY 40202",-85.759407,38.2542376
"Los Angeles, CA 90031",-118.2221876,34.0767965
"Annapolis Junction, MD 20701",-76.7963417456,39.11899645
"San Jose, CA 95113",-121.891088182,37.3332419126
"Harrisonburg, VA",-78.8688833,38.4493315
"Washington, DC 20230",-77.0366456,38.8949549
"Fort Washington, PA 19034",-75.1897242752,40.14785315
"Richland, WA",-119.2769067,46.2778406
"Peoria, IL",-89.5891008,40.6938609
"Davis, CA",-121.7445835,38.545379
"Ewing, NJ 08560",-74.8083723635,40.307494355
"Burlingame, CA 94010",-122.358094197,37.5836166535
"Greenville, SC",-82.3984882,34.851354
"Corona, CA",-121.9969063,37.0066161
"Dover, NH",-70.8739158,43.198057
"Fairfax, VA 22030",-77.3063733,38.8462236
"Bolling AFB, DC",-77.0170933663,38.83774685
"Weehawken, NJ 07086",-74.0228411235,40.7669811753
"Silver Spring, MD 20993",-77.0288918,38.9959081
"Colorado",-105.6077167,38.7251776
"Tracy, CA",-121.4252227,37.7396513
"Kansas City, MO 64112",-94.5934969579,39.0380023812
"Lone Tree, CO 80124",-104.8820236,39.5486495
"Houston, TX 77094",-95.6727242,29.8182832
"Owings Mills, MD",-76.796299,39.4010753
"Linden, NJ",-74.2445902,40.6220478
"Columbus, OH 43228",-83.1474174,39.9836166
"Morrisville, NC 27560",-78.8255621,35.823483
"Collegeville, PA",-75.451571,40.1856597
"Raleigh, NC 27601",-78.6390989,35.7803977
"Edgewood, MD",-76.2944016,39.4187194
"Painted Post, NY 14870",-77.0878555,42.157327
"Rocklin, CA",-121.2357828,38.7907339
"Northbrook, IL 60062",-87.8448949074,42.1260502575
"Rochester, MN 55901",-92.4871947,44.0269721
"Skaneateles Falls, NY",-76.4560472,42.9931214
"San Francisco, CA 94102",-122.41876284,37.7790079806
"Houston, TX 77042",-95.5608147357,29.7291400669
"Houston, TX 77032",-95.3417679815,29.9443654184
"Rochester, NY 14614",-77.615214,43.157285
"North Brunswick, NJ",-74.4518173,40.4862174
"Las Vegas, NV 89101",-115.101941661,36.1705378279
"Fort Lauderdale, FL",-80.1433786,26.1223084
"Tallahassee, FL",-84.2809332,30.4380832
"Pasadena, CA 91125",-118.1444779,34.1476452
"Altamonte Springs, FL",-81.3762686137,28.6649055
"Lafayette, LA",-92.0198427,30.2240897
"New York, NY 10014",-74.007399,40.73337
"Montvale, NJ",-74.0229173,41.0467635
"Newtown Square, PA",-75.4007633,39.9868117
"Keller, TX",-97.2271249,32.9299655
"Saint Paul, MN",-93.1015026,44.9504037
"South Bend, IN",-86.2500066,41.6833813
"Fremont, CA 94538",-121.976585059,37.55748105
"Pleasanton, CA 94588",-121.895980544,37.6867736579
"Rochester, NY",-77.615214,43.157285
"Boston, MA 02111",-71.0605297403,42.3525974587
"Roseville, MN",-93.1566107,45.0060767
"San Bernardino, CA",-117.2897652,34.1083449
"Marina del Rey, CA 90292",-118.4497507,33.9726931
"Lisle, IL 60532",-88.0843712019,41.7878651144
"Shelton, CT 06484",-73.125982262,41.3032826561
"Waltham, MA 02453",-71.2360301,42.3741972
"Ogden, UT",-111.9738429,41.2230048
"Minneapolis, MN 55401",-93.2654692,44.9772995
"Sylmar, CA 91342",-118.42638075,34.304089117
"Tampa, FL 33610",-82.458444,27.9477595
"Dayton, OH 45433",-84.1916069,39.7589478
"Atlanta, GA 30319",-84.3901849,33.7490987
"Boston, MA 02114",-71.066038238,42.3616334736
"New York, NY 10281",-74.0150305,40.7141575
"Culver City, CA",-118.3964665,34.0211224
"Jacksonville, FL",-81.655651,30.3321838
"Columbus, OH 43201",-83.0007065,39.9622601
"Billings, MT",-108.49607,45.7874957
"Worcester, MA",-71.8022934,42.2625932
"San Antonio, TX 78243",-98.5639149841,29.3808625616
"Connecticut",-72.7342163,41.6500201
"Newark, CA 94560",-122.0467976,37.5477641
"Beaverton, OR 97005",-122.8037804,45.4871723
"Rocklin, CA 95765",-121.269728607,38.811932336
"Albuquerque, NM",-106.6509851,35.0841034
"Oregon",-120.737257,43.9792797
"Bozeman, MT",-111.044675,45.679984
"Westfield, IN",-86.1274888,40.0428151
"Los Angeles, CA 90016",-118.352021528,34.0290811379
"Cambridge, MA 02238",-71.0964791644,42.3608156972
"Mayfield Heights, OH",-81.457896,41.5192189
"Lansing, MI",-84.5553805,42.7337712
"Norfolk, VA",-76.2481624,36.8889933
"San Diego, CA 92122",-117.209596903,32.8542379274
"Champaign, IL 61822",-88.2889855125,40.1144841059
"Hollywood, CA 90028",-118.3320677,34.1013568
"Adelaide, WA",-122.3586134,47.3319625
"Roanoke, VA",-79.9602096796,37.274532
"Township of Piscataway, NJ",-74.4721153833,40.5361466
"Framingham, MA",-71.416172,42.2792625
"Melbourne, FL 32901",-80.6081089,28.0836269
"Illinois",-89.4339809,40.0796319
"North Reading, MA",-71.0786653,42.5750939
"Montgomery, AL",-86.3006485,32.3669656
"Richmond, VA 23236",-77.43428,37.5385087
"Novi, MI",-83.4754913,42.48059
"San Francisco, CA 94121",-122.492364626,37.7789542344
"Pittsburgh, PA 15238",-79.9900861,40.4416941
"Cleveland, OH 44124",-81.6934446,41.5051613
"Miami, FL",-80.1936589,25.7742658
"Annapolis, MD",-76.492786,38.9786401
"New Brunswick, NJ",-74.4518173,40.4862174
"Ann Arbor, MI 48104",-83.7312291,42.2681569
"Burbank, CA 91504",-118.334944925,34.2033084744
"Troy, NY 12180",-73.6917851,42.7284117
"Greenwich, CT 06831",-73.6592059661,41.0623893
"Shiloh, IL",-89.8973233,38.5614383
"San Juan, PR",-66.116666,18.465299
"San Antonio, TX 78205",-98.4889792075,29.4257958466
"Northridge, CA",-118.5369316,34.2285918
"Chicago, IL 60661",-87.6466754045,41.8849827294
"China Lake, CA",-117.66173,35.6507888
"East Lansing, MI",-84.4852469,42.7355416
"Woodland Hills, CA 91371",-118.6059197,34.1683386
"Scottsdale, AZ 85255",-111.88155453,33.6616583767
"Harrisburg, PA 17101",-76.8861122,40.2663107
"Encino, CA",-118.5016166,34.1591324
"Denver, CO 80206",-104.9525645,39.7305933011
"South Burlington, VT",-73.1709604,44.4669941
"Bethesda, MD 20817",-77.0946459,38.9848265
"Little Rock, AR 72202",-92.2895948,34.7464809
"Saint Paul, MN 55101",-93.1015026,44.9504037
"Ashburn, VA",-77.4874899,39.0437192
"Albuquerque, NM 87113",-106.587205958,35.1780919982
"Georgia",-83.1137366,32.3293809
"Danbury, CT 06810",-73.4560300608,41.3897219699
"Niwot, CO",-105.153489709,40.1016754
"Glendale, CA 91201",-118.291249693,34.1701062701
"Brisbane, CA",-122.3999715,37.6807661
"Wall Street, NY",-74.007949,40.705547
"Lake Geneva, WI 53147",-88.4334301,42.5916836
"Midland, MI",-84.2472117,43.6155825
"Atlanta, GA 30318",-84.3901849,33.7490987
"Austin, TX 78703",-97.7578438,30.3016455
"Honolulu, HI",-157.846644179,21.3250785
"West Lafayette, IN",-86.9080655,40.4258686
"Augusta, GA",-81.9748429,33.4709714
"Hayward, CA",-122.0807964,37.6688205
"Westlake, TX 76262",-97.2126544036,32.9819282248
"Pittsburgh, PA 15201",-79.9900861,40.4416941
"New York, NY 10176",-74.1681811,41.4201624
